[
  {
    "id": "940184",
    "name": "서울유기견보호소소",
    "lat": 37.662983, 
    "lng": 127.063575,
    "tel": "1566-8713",
    "addr": "서울특별시 노원구 동일로 1354",
    "img": "/seoul.jpg" 
  },
  {
    "name": "인천강아지쉼터터",
    "lat": 37.4563,
    "lng": 126.7052,
    "tel": "032-234-5678",
    "addr": "인천광역시 미추홀구 석정로 229",
    "img":"/preview.jpg"
    
  },
  {
    "name": "부산반려동물센터터",
    "lat": 35.1796,
    "lng": 129.0756,
    "tel": "051-345-6789",
    "addr": "부산광역시 중구 중앙대로 100",
    "img":"/preview.jpg"
    
  },
  {
    "name": "대전유기견센터",
    "lat": 36.3504,
    "lng": 127.3845,
    "tel": "042-765-4321",
    "addr": "대전광역시 서구 둔산대로 100",
    "img": "/preview.jpg"
  },
  {
    "name": "대구반려견보호소",
    "lat": 35.8722,
    "lng": 128.6025,
    "tel": "053-876-5432",
    "addr": "대구광역시 중구 동성로 123",
    "img": "/preview.jpg"
  },
  {
    "name": "광주동물사랑쉼터",
    "lat": 35.1595,
    "lng": 126.8526,
    "tel": "062-234-9876",
    "addr": "광주광역시 북구 서림로 89",
    "img": "/preview.jpg"
  },
  {
    "name": "울산유기견센터",
    "lat": 35.5384,
    "lng": 129.3114,
    "tel": "052-345-6789",
    "addr": "울산광역시 남구 삼산로 145",
    "img": "/preview.jpg"
  },
  {
    "name": "경기유기견보호소",
    "lat": 37.2636,
    "lng": 127.0286,
    "tel": "031-876-4321",
    "addr": "경기도 수원시 팔달구 중부대로 112",
    "img": "/preview.jpg"
  },
  {
    "name": "강원반려견쉼터",
    "lat": 37.8813,
    "lng": 127.7298,
    "tel": "033-123-4567",
    "addr": "강원도 춘천시 중앙로 55",
    "img": "/preview.jpg"
  },
  {
    "name": "충북유기견사랑관",
    "lat": 36.6357,
    "lng": 127.4917,
    "tel": "043-234-1234",
    "addr": "충청북도 청주시 상당구 상당로 77",
    "img": "/preview.jpg"
  },
  {
    "name": "충남동물쉼터",
    "lat": 36.4622,
    "lng": 126.8047,
    "tel": "041-456-7890",
    "addr": "충청남도 홍성군 홍북읍 도청대로 1",
    "img": "/preview.jpg"
  },
  {
    "name": "전북유기견구조소",
    "lat": 35.8219,
    "lng": 127.1480,
    "tel": "063-654-3210",
    "addr": "전라북도 전주시 완산구 전라대로 200",
    "img": "/preview.jpg"
  },
  {
    "name": "전남반려견보호센터",
    "lat": 34.8161,
    "lng": 126.4629,
    "tel": "061-777-7777",
    "addr": "전라남도 목포시 해안로 89",
    "img": "/preview.jpg"
  },
  {
    "name": "경북유기견쉼터",
    "lat": 36.0190,
    "lng": 129.3435,
    "tel": "054-888-8888",
    "addr": "경상북도 포항시 북구 중앙로 222",
    "img": "/preview.jpg"
  },
  {
    "name": "경남반려견구조소",
    "lat": 35.1796,
    "lng": 128.1076,
    "tel": "055-999-9999",
    "addr": "경상남도 창원시 의창구 창이대로 333",
    "img": "/preview.jpg"
  }
]


